{
  "description": "Pre-geocoded coordinates for project locations. Region assignments based on geography.",
  "locations": {
    "religious-1": {
      "lat": 41.9001,
      "lng": -71.0898,
      "region": "americas",
      "country": "United States",
      "city": "Taunton, Massachusetts"
    },
    "religious-2": {
      "lat": 14.9799,
      "lng": 102.0978,
      "region": "asia",
      "country": "Thailand",
      "city": "Nakhon Ratchasima"
    },
    "religious-3": {
      "lat": 13.7563,
      "lng": 100.5018,
      "region": "asia",
      "country": "Thailand",
      "city": "Bangkok"
    },
    "religious-4": {
      "lat": 13.7563,
      "lng": 100.5018,
      "region": "asia",
      "country": "Thailand",
      "city": "Bangkok"
    },
    "religious-5": {
      "lat": 17.4138,
      "lng": 102.7872,
      "region": "asia",
      "country": "Thailand",
      "city": "Udon Thani"
    },
    "religious-6": {
      "lat": 13.7563,
      "lng": 100.5018,
      "region": "asia",
      "country": "Thailand",
      "city": "Bangkok"
    },
    "religious-7": {
      "lat": 45.5152,
      "lng": -122.6784,
      "region": "americas",
      "country": "United States",
      "city": "Oregon"
    },
    "religious-8": {
      "lat": 13.7563,
      "lng": 100.5018,
      "region": "asia",
      "country": "Thailand",
      "city": "Bangkok"
    },
    "religious-9": {
      "lat": 13.7563,
      "lng": 100.5018,
      "region": "asia",
      "country": "Thailand",
      "city": "Bangkok"
    },
    "legacy-1": {
      "lat": 13.7563,
      "lng": 100.5018,
      "region": "asia",
      "country": "Thailand",
      "city": "Bangkok"
    },
    "legacy-2": {
      "lat": 13.7563,
      "lng": 100.5018,
      "region": "asia",
      "country": "Thailand",
      "city": "Bangkok"
    },
    "legacy-3": {
      "lat": 13.7563,
      "lng": 100.5018,
      "region": "asia",
      "country": "Thailand",
      "city": "Bangkok"
    },
    "architectural-1": {
      "lat": 13.7563,
      "lng": 100.5018,
      "region": "asia",
      "country": "Thailand",
      "city": "Bangkok"
    },
    "architectural-2": {
      "lat": 13.6820,
      "lng": 101.0779,
      "region": "asia",
      "country": "Thailand",
      "city": "Chachoengsao"
    },
    "architectural-3": {
      "lat": 13.7437,
      "lng": 100.4888,
      "region": "asia",
      "country": "Thailand",
      "city": "Bangkok"
    },
    "architectural-4": {
      "lat": 14.9799,
      "lng": 102.0978,
      "region": "asia",
      "country": "Thailand",
      "city": "Nakhon Ratchasima"
    }
  },
  "regions": {
    "all": {
      "name": "All Regions",
      "bounds": [[-60, -180], [80, 180]]
    },
    "americas": {
      "name": "Americas",
      "bounds": [[-55, -170], [72, -30]]
    },
    "europe": {
      "name": "Europe",
      "bounds": [[35, -25], [72, 45]]
    },
    "asia": {
      "name": "Asia",
      "bounds": [[-10, 60], [55, 150]]
    },
    "middle-east": {
      "name": "Middle East",
      "bounds": [[10, 30], [45, 65]]
    },
    "oceania": {
      "name": "Oceania",
      "bounds": [[-50, 110], [0, 180]]
    },
    "africa": {
      "name": "Africa",
      "bounds": [[-35, -20], [38, 55]]
    }
  }
}
